City_ID,City,Lat,Lng,Max Temp,Humidity,Cloudiness,Wind Speed,Country,Date
0,sikonge,-5.6333,32.7667,66.63,74,19,2.91,TZ,1684189323
1,aasiaat,68.7098,-52.8699,29.43,75,100,8.3,GL,1684189323
2,alice springs,-23.7,133.8833,42.35,100,1,6.29,AU,1684189323
3,la passe,45.5549,-0.8967,55.63,94,100,13.51,FR,1684189323
4,adamstown,-25.066,-130.1015,75.56,85,1,21.59,PN,1684189324
5,laojunmiao,39.8333,97.7333,52.07,48,100,3.62,CN,1684189324
6,puerto ayora,-0.7393,-90.3518,85.96,86,79,5.99,EC,1684189324
7,qaqortoq,60.7167,-46.0333,41.0,67,97,10.8,GL,1684189324
8,am timan,11.0297,20.2827,93.0,24,15,4.5,TD,1684189325
9,nouadhibou,20.931,-17.0347,67.98,88,78,14.97,MR,1684189325
10,puerto deseado,-47.7503,-65.8938,60.01,55,100,19.62,AR,1684189325
11,tiksi,71.6872,128.8694,31.1,91,95,7.23,RU,1684189326
12,prado,-17.3411,-39.2208,74.82,84,9,4.59,BR,1684189327
13,ulladulla,-35.35,150.4667,53.74,73,0,5.57,AU,1684189327
14,quellon,-43.1167,-73.6167,55.65,94,100,8.05,CL,1684189327
15,whitehorse,60.7161,-135.0538,64.09,21,20,4.61,CA,1684189063
16,hami,42.8,93.45,63.28,39,74,10.0,CN,1684189328
17,arris,35.2588,6.3471,45.64,64,3,5.53,DZ,1684189328
18,fort morgan,40.2503,-103.8,62.28,67,100,5.75,US,1684189328
19,constantia,44.1833,28.65,57.88,79,100,11.25,RO,1684189329
20,dudinka,69.4058,86.1778,20.95,90,98,9.46,RU,1684189329
21,bredasdorp,-34.5322,20.0403,53.01,88,14,1.57,ZA,1684189329
22,bilibino,68.0546,166.4372,22.91,81,74,1.99,RU,1684189330
23,port alfred,-33.5906,26.891,57.79,79,10,6.33,ZA,1684189330
24,iqaluit,63.7506,-68.5145,32.7,64,100,25.99,CA,1684189330
25,the pas,53.8251,-101.2541,77.02,31,100,9.22,CA,1684189330
26,yellowknife,62.456,-114.3525,51.57,87,100,13.8,CA,1684189082
27,ataq,14.5377,46.8319,78.31,53,88,9.93,YE,1684189331
28,talnakh,69.4865,88.3972,18.18,92,92,7.47,RU,1684189331
29,port-aux-francais,-49.35,70.2167,42.06,74,53,28.05,TF,1684189331
30,barah,13.7,30.3667,85.68,10,0,12.66,SD,1684189331
31,al kharijah,25.4514,30.5464,78.69,15,57,6.4,EG,1684189332
32,jamestown,42.097,-79.2353,65.84,19,0,9.22,US,1684189275
33,nar'yan-mar,67.6713,53.087,32.2,98,74,4.38,RU,1684189332
34,miraflores de la sierra,40.8155,-3.7621,52.65,87,13,7.92,ES,1684189332
35,tsengel,49.4783,100.8894,35.11,96,100,3.56,MN,1684189332
36,grytviken,-54.2811,-36.5092,33.44,88,91,7.34,GS,1684189333
37,blackmans bay,-43.0167,147.3167,47.52,70,39,11.18,AU,1684189333
38,mbekenyera,-10.0,38.9833,68.86,93,30,2.77,TZ,1684189333
39,tura,25.5198,90.2201,68.74,94,0,4.83,IN,1684189333
40,yevlakh,40.6183,47.1501,53.55,83,89,0.72,AZ,1684189333
41,lihue,21.9789,-159.3672,79.84,62,100,13.8,US,1684189334
42,inirida,3.8653,-67.9239,78.71,95,86,2.24,CO,1684189279
43,olonkinbyen,70.9221,-8.7187,27.59,94,100,35.86,SJ,1684189334
44,invercargill,-46.4,168.35,47.01,95,32,3.0,NZ,1684189334
45,alofi,-19.0595,-169.9187,73.29,88,100,6.91,NU,1684189335
46,nemuro,43.3236,145.575,43.41,96,100,6.69,JP,1684189335
47,lebu,-37.6167,-73.65,57.38,79,95,13.78,CL,1684189206
48,longyearbyen,78.2186,15.6401,21.04,68,75,21.85,SJ,1684189335
49,nova sintra,14.8667,-24.7167,68.32,80,10,20.24,CV,1684189335
50,hawaiian paradise park,19.5933,-154.9731,77.04,79,100,1.01,US,1684189241
51,margaret river,-33.95,115.0667,54.57,82,34,5.37,AU,1684189336
52,waitangi,-43.9535,-176.5597,57.81,89,43,8.01,NZ,1684189336
53,nizhneudinsk,54.9076,99.0276,37.6,71,100,2.68,RU,1684189336
54,punta arenas,-53.15,-70.9167,44.71,76,0,4.61,CL,1684189318
55,casalecchio di reno,44.4756,11.2759,58.24,91,0,4.61,IT,1684189337
56,edinburgh of the seven seas,-37.0676,-12.3116,60.33,89,100,6.29,SH,1684189337
57,cidreira,-30.1811,-50.2056,65.34,76,61,8.52,BR,1684189337
58,wailua homesteads,22.0669,-159.378,79.23,63,100,13.8,US,1684189337
59,manokwari,-0.8667,134.0833,80.08,79,100,1.66,ID,1684189337
60,avarua,-21.2078,-159.775,78.85,73,40,4.61,CK,1684189338
61,bethel,41.3712,-73.414,75.36,31,0,9.22,US,1684189338
62,brezina,33.0989,1.2608,64.09,29,2,15.55,DZ,1684189338
63,sydney mines,46.2367,-60.2177,60.26,52,75,8.05,CA,1684189338
64,dzuunharaa,48.8523,106.4579,34.11,79,99,2.35,MN,1684189338
65,fale old settlement,-9.3852,-171.2468,83.52,75,8,8.79,TK,1684189339
66,vorgashor,67.5833,63.95,25.05,93,98,13.78,RU,1684189331
67,leshan,29.5623,103.7639,65.8,86,26,1.81,CN,1684189339
68,puerto natales,-51.7236,-72.4875,42.48,93,96,4.45,CL,1684189142
69,semirara,12.0697,121.3986,83.32,78,36,9.15,PH,1684189339
70,st. john's,47.5649,-52.7093,48.67,63,20,23.02,CA,1684189043
71,shahr-e babak,30.1165,55.1186,64.04,11,7,7.09,IR,1684189340
72,kirensk,57.7853,108.1119,34.34,85,100,5.06,RU,1684189340
73,xining,36.6167,101.7667,53.49,58,39,2.48,CN,1684189340
74,codrington,-38.2667,141.9667,53.64,71,100,15.5,AU,1684189340
75,barpeta,26.3167,91.0,69.31,92,22,10.69,IN,1684189341
76,deqen,29.9618,90.7188,43.05,64,90,2.48,CN,1684189341
77,arica,-18.475,-70.3042,71.15,68,0,11.5,CL,1684189065
78,praia da vitoria,38.7333,-27.0667,66.45,88,20,3.0,PT,1684189341
79,stanley,54.868,-1.6985,46.76,86,20,3.44,GB,1684189341
80,ocean shores,46.9737,-124.1563,68.95,85,0,19.57,US,1684189196
81,west island,-12.1568,96.8225,80.58,74,40,10.36,CC,1684189342
82,papatowai,-46.5619,169.4708,43.63,67,7,7.05,NZ,1684189342
83,malango,-2.9627,119.9001,64.85,96,95,2.75,ID,1684189343
84,san matias,-16.3667,-58.4,74.53,61,0,1.61,BO,1684189343
85,ushuaia,-54.8,-68.3,42.46,75,75,26.46,AR,1684189156
86,eten,-6.9081,-79.8642,82.65,61,20,12.66,PE,1684189343
87,georgetown,5.4112,100.3354,80.55,89,20,4.61,MY,1684189344
88,port mathurin,-19.6833,63.4167,77.92,75,31,16.67,MU,1684189344
89,palo santo,-25.5633,-59.3378,67.86,52,0,5.99,AR,1684189344
90,ribeira grande,38.5167,-28.7,65.77,94,85,5.99,PT,1684189344
91,minas de marcona,-15.2119,-75.1103,63.64,73,12,12.08,PE,1684189344
92,port lincoln,-34.7333,135.8667,58.68,80,43,7.83,AU,1684189345
93,vsetin,49.3387,17.9962,48.85,97,100,3.62,CZ,1684189345
94,buritis,-15.6178,-46.4233,78.75,43,9,3.76,BR,1684189150
95,palmer,42.1584,-72.3287,72.21,28,75,10.36,US,1684189313
96,morristown,36.214,-83.2949,77.72,74,100,4.65,US,1684189345
97,udachny,66.4167,112.4,34.45,80,95,2.04,RU,1684189346
98,kitale,1.0157,35.0062,55.71,90,81,0.47,KE,1684189346
99,kruisfontein,-34.0033,24.7314,48.88,85,6,3.33,ZA,1684189346
100,hamilton,39.1834,-84.5333,75.78,59,0,9.22,US,1684189065
101,mandalgovi,45.7625,106.2708,37.44,64,0,17.65,MN,1684189346
102,san antonio de pale,-1.4014,5.6325,82.06,82,94,14.94,GQ,1684189347
103,loreto,22.2667,-101.9667,76.01,21,74,1.63,MX,1684189347
104,tochio-honcho,37.4667,139.0,62.55,83,4,1.01,JP,1684189347
105,albany,42.6001,-73.9662,71.37,32,69,1.01,US,1684188999
106,salinopolis,-0.6136,-47.3561,81.14,81,27,11.56,BR,1684189347
107,saipan,15.1355,145.701,82.65,100,40,7.0,MP,1684189347
108,kavarna,43.4333,28.3333,56.28,85,100,7.61,BG,1684189348
109,sechura,-5.5569,-80.8222,83.95,57,66,13.91,PE,1684189349
110,paracuru,-3.41,-39.0306,83.1,85,7,9.19,BR,1684189350
111,lompoc,34.6391,-120.4579,80.69,81,100,8.05,US,1684189258
112,korla,41.7597,86.1469,67.82,34,5,11.3,CN,1684189351
113,polyarnyy,69.1989,33.4478,47.61,77,43,12.44,RU,1684189351
114,berezovo,63.9381,65.0419,37.49,70,80,13.69,RU,1684189351
115,cloverdale,38.8055,-123.0172,85.12,49,0,7.0,US,1684189352
116,sinjai,-5.1241,120.253,74.19,91,94,4.16,ID,1684189352
117,thompson,55.7435,-97.8558,68.16,34,20,17.27,CA,1684189352
118,sorong,-0.8833,131.25,81.27,82,85,8.5,ID,1684189352
119,maicao,11.3832,-72.2432,83.64,70,100,7.31,CO,1684189353
120,sao vicente,-23.9631,-46.3919,71.78,26,100,1.68,BR,1684189218
121,gadzhiyevo,69.2551,33.3362,46.53,78,40,12.48,RU,1684189353
122,aden,12.7794,45.0367,86.49,71,6,10.56,YE,1684189126
123,suntar,62.1444,117.6319,38.05,68,75,3.15,RU,1684189353
124,la'ie,21.6477,-157.9253,82.36,61,28,10.02,US,1684189354
125,vitebsk,55.1905,30.2033,55.42,68,64,12.1,BY,1684189354
126,aras-asan,8.8908,126.3033,78.08,87,79,3.98,PH,1684189354
127,westport,41.1415,-73.3579,77.27,33,0,16.11,US,1684189354
128,ola,59.5833,151.2833,44.15,55,89,11.65,RU,1684189355
129,karaton,-6.3424,106.1045,73.26,92,14,1.97,ID,1684189355
130,sale,34.0389,-6.8166,63.75,100,0,0.0,MA,1684189355
131,rudsar,37.1376,50.288,55.87,90,89,2.1,IR,1684189355
132,mejit,10.2753,170.8646,81.57,78,88,17.72,MH,1684189355
133,gilgit,35.9221,74.3087,61.65,49,6,3.0,PK,1684189356
134,juan griego,11.0817,-63.9655,80.15,81,100,12.57,VE,1684189356
135,kikwit,-5.041,18.8162,73.22,91,99,1.86,CD,1684189356
136,aykhal,66.0,111.5,26.15,91,74,3.22,RU,1684189356
137,woolgoolga,-30.1106,153.2007,61.03,94,100,8.68,AU,1684189356
138,namibe,-15.1961,12.1522,70.7,74,78,7.31,AO,1684189357
139,jasper,37.2001,-94.3502,71.46,93,100,1.99,US,1684189150
140,merizo village,13.2658,144.6691,84.97,90,86,11.95,GU,1684189357
141,kyshtovka,56.555,76.6271,43.09,48,89,7.0,RU,1684189331
142,itaituba,-4.2761,-55.9836,77.18,95,83,1.63,BR,1684189357
143,chui,-33.6971,-53.4616,58.44,81,92,7.25,UY,1684189170
144,castillos,-34.1667,-53.8333,56.17,83,59,5.5,UY,1684189358
145,brookings,44.3114,-96.7984,73.11,43,0,4.61,US,1684189358
146,paita,-5.0892,-81.1144,78.58,72,86,14.63,PE,1684189358
147,beroroha,-21.6667,45.1667,66.76,83,0,2.73,MG,1684189358
148,bad durrenberg,51.3,12.0667,56.01,76,0,8.05,DE,1684189359
149,weno,7.4515,151.8468,84.15,89,100,3.44,FM,1684189359
150,kill devil hills,36.0307,-75.676,66.22,60,0,5.75,US,1684189359
151,ancud,-41.8697,-73.8203,54.37,94,100,17.56,CL,1684189301
152,khash,28.2211,61.2158,74.75,10,91,4.12,IR,1684189360
153,karratha,-20.7377,116.8463,67.33,34,19,8.61,AU,1684189360
154,andergrove,-21.0833,149.1833,71.65,81,89,7.16,AU,1684189095
155,chulucanas,-5.0925,-80.1625,88.5,52,78,5.61,PE,1684189360
156,kavaratti,10.5669,72.642,84.49,72,94,8.48,IN,1684189360
157,dreieich,50.0,8.7,58.06,76,0,11.5,DE,1684189361
158,hermanus,-34.4187,19.2345,55.78,83,19,7.09,ZA,1684189361
159,uturoa,-16.7333,-151.4333,81.27,73,2,4.74,PF,1684189361
160,zapala,-38.8992,-70.0544,62.31,27,100,5.32,AR,1684189361
161,akjoujt,19.6969,-14.4164,86.49,29,59,21.27,MR,1684189362
162,glace bay,46.1969,-59.957,59.9,50,75,8.05,CA,1684189362
163,keflavik,64.0049,-22.5624,37.83,70,0,2.3,IS,1684189362
164,kodiak,57.79,-152.4072,44.11,81,100,14.97,US,1684189362
165,margate,51.3813,1.3862,50.88,71,5,4.0,GB,1684189342
166,vila franca do campo,37.7167,-25.4333,64.81,79,31,3.4,PT,1684189363
167,kavala,40.9397,24.4019,66.85,60,100,4.43,GR,1684189363
168,ijebu-ife,6.7784,4.0339,75.83,94,94,3.8,NG,1684189363
169,atafu village,-8.5421,-172.5159,82.92,78,77,7.23,TK,1684189363
170,tougue,11.4667,-11.6,75.11,74,83,7.47,GN,1684189363
171,blankenberge,51.3131,3.1323,49.95,66,46,5.99,BE,1684189364
172,chonchi,-42.6128,-73.8092,54.61,93,100,7.67,CL,1684189364
173,prince rupert,54.3161,-130.3201,73.49,50,0,11.5,CA,1684189364
174,al jawf,29.5,38.75,77.94,14,77,8.93,SA,1684189364
175,anadyr,64.75,177.4833,21.7,79,0,8.95,RU,1684189364
176,lerwick,60.1545,-1.1494,48.2,86,52,13.82,GB,1684189365
177,nuuk,64.1835,-51.7216,39.81,81,75,12.66,GL,1684189365
178,badger,64.8,-147.5333,64.65,28,75,14.97,US,1684189365
179,howrah,22.5892,88.3103,77.0,83,40,3.44,IN,1684189365
180,rongelap,11.1635,166.8941,81.52,77,100,15.46,MH,1684189366
181,holualoa,19.6228,-155.9522,79.56,73,40,13.8,US,1684189366
182,east london,-33.0153,27.9116,58.53,81,0,4.52,ZA,1684189111
183,fort bragg,35.139,-79.006,81.95,32,75,5.75,US,1684189366
184,goondiwindi,-28.55,150.3167,60.39,86,77,8.55,AU,1684189366
185,college,64.8569,-147.8028,64.72,28,75,14.97,US,1684189367
186,harar,9.3094,42.1258,60.49,88,39,4.07,ET,1684189367
187,saldanha,-33.0117,17.9442,53.65,86,3,11.12,ZA,1684189367
188,macau,22.2006,113.5461,75.85,94,40,5.75,MO,1684189367
189,timbuktu,16.7735,-3.0074,94.71,28,90,8.99,ML,1684189367
190,almeirim,-1.5233,-52.5817,78.49,90,93,3.4,BR,1684189368
191,nishinoomote,30.7333,131.0,70.38,71,0,9.86,JP,1684189368
192,touros,-5.1989,-35.4608,77.31,90,14,10.63,BR,1684189368
193,altar,30.7,-111.8167,95.14,13,0,11.41,MX,1684189368
194,laguna,38.421,-121.4238,91.35,37,0,5.75,US,1684189326
195,chibougamau,49.9168,-74.3659,55.02,58,75,17.27,CA,1684189369
196,afaahiti,-17.75,-149.2833,85.87,76,21,5.73,PF,1684189369
197,michurinsk,52.8978,40.4907,46.8,81,34,5.79,RU,1684189369
198,port elizabeth,-33.918,25.5701,52.32,91,0,4.61,ZA,1684189369
199,awjilah,29.1081,21.2869,84.47,15,82,12.5,LY,1684189369
200,nowa ruda,50.5801,16.5016,52.29,96,43,6.93,PL,1684189370
201,bardai,11.65,7.2333,86.76,39,100,9.17,NG,1684189370
202,tofol,5.3248,163.0078,85.78,74,75,3.44,FM,1684189370
203,iskateley,67.6803,53.1512,31.87,98,75,4.36,RU,1684189295
204,kushalgarh,23.199,74.4507,84.18,65,0,14.23,IN,1684189370
205,klyuchi,52.2667,79.1667,48.51,64,14,5.97,RU,1684189371
206,puerto colombia,10.9878,-74.9547,87.89,80,100,7.4,CO,1684189371
207,mount gambier,-37.8333,140.7667,51.53,74,91,8.32,AU,1684189372
208,arno,60.1167,18.6333,49.39,74,100,6.98,SE,1684189372
209,sao jose da coroa grande,-8.8978,-35.1478,78.22,82,72,6.6,BR,1684189372
210,kerikeri,-35.2268,173.9474,60.91,94,24,1.01,NZ,1684189196
211,vilyuchinsk,52.9306,158.4028,50.27,80,18,3.69,RU,1684189374
212,porto belo,-27.1578,-48.5531,69.17,73,71,1.59,BR,1684189374
213,enewetak,11.3474,162.3373,81.72,78,79,17.11,MH,1684189374
214,taoudenni,22.6783,-3.9836,89.1,10,37,12.59,ML,1684189375
215,kashin,57.3592,37.6081,49.46,73,7,4.88,RU,1684189375
216,ghat,24.9647,10.1728,73.69,15,0,12.68,LY,1684189375
217,alo,7.4178,6.7371,80.08,80,31,5.73,NG,1684189381
218,egilsstadir,65.2653,-14.3948,30.11,64,75,9.22,IS,1684189381
219,porto novo,6.4965,2.6036,78.55,81,100,7.47,BJ,1684189285
220,portland,45.5234,-122.6762,91.38,34,40,6.91,US,1684189364
221,ivdel',60.6911,60.4206,44.35,78,39,4.21,RU,1684189382
222,taroa,8.7058,171.2275,81.81,80,98,16.89,MH,1684189382
223,el calafate,-50.3408,-72.2768,45.52,94,74,2.89,AR,1684189382
224,cananeia,-25.0147,-47.9267,65.52,78,75,1.52,BR,1684189383
225,lazaro cardenas,17.9583,-102.2,86.7,53,0,10.54,MX,1684189383
226,kalavad,22.2167,70.3833,82.4,77,6,12.97,IN,1684189383
227,tahe,52.3333,124.7333,39.78,68,23,9.57,CN,1684189383
228,sumbe,-11.2061,13.8437,75.51,87,48,6.73,AO,1684189383
229,tazacorte,28.629,-17.9293,68.97,79,100,18.41,ES,1684189384
230,nadym,65.5333,72.5167,28.47,88,93,20.15,RU,1684189384
231,hithadhoo,-0.6,73.0833,83.14,80,98,17.58,MV,1684189384
232,tromso,69.6496,18.957,46.42,81,75,4.61,NO,1684189384
233,avanigadda,16.0215,80.9181,91.54,27,61,4.12,IN,1684189384
234,alamosa,37.4695,-105.87,66.18,32,0,9.22,US,1684189385
235,ichchapuram,19.1167,84.7,81.57,91,35,7.54,IN,1684189385
236,pandan,14.0453,124.1694,79.9,86,55,5.41,PH,1684189385
237,pangody,65.85,74.4859,26.53,93,98,17.69,RU,1684189385
238,twentynine palms,34.1356,-116.0542,96.13,11,41,8.01,US,1684189386
239,king city,36.2127,-121.126,89.89,22,8,0.85,US,1684189386
240,bubaque,11.2833,-15.8333,79.9,72,100,17.52,GW,1684189386
241,faro,37.0194,-7.9322,70.18,52,0,13.8,PT,1684189386
242,huinan,42.6225,126.2614,63.01,74,37,10.51,CN,1684189387
243,erenhot,43.6475,111.9767,60.4,41,100,23.29,CN,1684189387
244,gisborne,-38.6533,178.0042,54.05,71,63,3.8,NZ,1684189388
245,canutama,-6.5339,-64.3831,78.51,89,97,0.02,BR,1684189388
246,aitape,-3.1374,142.3475,81.43,81,77,3.56,PG,1684189388
247,isafjordur,66.0755,-23.124,32.59,73,71,7.05,IS,1684189388
248,dunedin,-45.8742,170.5036,52.81,66,0,5.99,NZ,1684189388
249,anina,45.0794,21.8569,58.15,95,98,6.53,RO,1684189389
250,tadine,-21.55,167.8833,75.22,64,84,16.6,NC,1684189389
251,cavelossim,15.1726,73.9419,80.78,84,100,5.75,IN,1684189389
252,roma,43.2128,-75.4557,68.72,22,0,20.71,US,1684189264
253,malabar,-33.9667,151.25,55.69,90,0,8.05,AU,1684189390
254,sumbawa besar,-8.5,117.4333,66.78,90,9,4.65,ID,1684189390
255,broken hill,-31.95,141.4333,54.34,55,0,6.67,AU,1684189390
256,hasaki,35.7333,140.8333,61.29,78,6,18.39,JP,1684189390
257,dire,12.2833,-10.9667,85.84,54,60,12.24,ML,1684189390
258,sitka,57.0531,-135.33,60.69,51,0,16.11,US,1684189391
259,mount pearl,47.5166,-52.7813,46.85,64,20,23.02,CA,1684189376
260,sao miguel do araguaia,-13.275,-50.1628,79.5,51,3,3.71,BR,1684189391
261,kiunga,-6.1219,141.2906,72.88,99,100,2.33,PG,1684189391
262,kolonia,50.9333,6.95,54.95,79,100,17.27,DE,1684189391
263,katsuren-haebaru,26.3369,127.8719,73.42,79,40,6.91,JP,1684189392
264,ulanhot,46.0833,122.0833,50.7,17,76,6.96,CN,1684189392
265,bulungu,-4.55,18.6,71.82,97,100,2.57,CD,1684189392
266,lagonegro,40.1283,15.7615,54.82,98,100,0.58,IT,1684189392
267,mahishadal,22.1833,87.9833,83.59,88,23,15.12,IN,1684189393
268,pasuquin,18.3328,120.6177,80.55,89,40,6.91,PH,1684189393
269,la ronge,55.1001,-105.2842,75.45,23,100,9.22,CA,1684189393
270,kholmsk,47.0511,142.0569,50.77,93,100,9.06,RU,1684189393
271,happy valley-goose bay,53.3168,-60.3315,43.11,81,100,10.36,CA,1684189394
272,susuman,62.7833,148.1667,38.08,64,96,6.62,RU,1684189394
273,sinabang,2.4803,96.3801,80.51,84,98,5.35,ID,1684189395
274,cabo san lucas,22.8909,-109.9124,86.61,50,20,11.5,MX,1684189319
275,luderitz,-26.6481,15.1594,62.33,47,0,3.8,NA,1684189395
276,soligalich,59.0778,42.2864,49.69,65,98,2.3,RU,1684189395
277,urangan,-25.3,152.9,68.25,89,8,10.4,AU,1684189396
278,barabinsk,55.3571,78.357,45.07,49,99,6.71,RU,1684189396
279,borogontsy,62.6683,131.1683,44.85,83,100,11.68,RU,1684189397
280,bim son,20.0781,105.8603,74.73,97,85,3.2,VN,1684189397
281,aripuana,-9.1667,-60.6333,80.2,71,95,0.74,BR,1684189397
282,shakawe,-18.3667,21.85,67.59,33,88,5.1,BW,1684189398
283,namdrik,5.5994,168.1028,81.79,79,98,13.96,MH,1684189398
284,sainte-suzanne,-20.9061,55.6089,75.42,90,0,6.91,RE,1684189398
285,saint-philippe,-21.3585,55.7679,74.79,80,23,4.59,RE,1684189399
286,zouerate,22.7187,-12.4521,89.04,14,57,7.65,MR,1684189399
287,hwange,-18.3693,26.5019,66.49,50,100,0.29,ZW,1684189399
288,zaragoza,41.6561,-0.8773,59.02,67,20,25.32,ES,1684189164
289,las higueras,-33.0923,-64.289,75.06,41,0,18.41,AR,1684189400
290,geraldton,-28.7667,114.6,52.21,71,3,12.66,AU,1684189400
291,bailen,38.0964,-3.7779,63.72,32,79,6.04,ES,1684189400
292,necochea,-38.5473,-58.7368,60.76,65,36,10.11,AR,1684189400
293,soure,-0.7167,-48.5233,81.3,84,46,12.3,BR,1684189401
294,kingston,17.997,-76.7936,86.23,74,20,17.27,JM,1684189401
295,yokadouma,3.5167,15.05,71.62,99,100,2.19,CM,1684189401
296,leava,-14.3,-178.1667,81.14,79,100,9.64,WF,1684189402
297,bridgewater,44.3835,-64.5155,63.63,41,81,23.02,CA,1684189402
298,mildura,-34.2,142.15,47.07,75,0,8.3,AU,1684189402
299,selfoss,63.9331,-20.9971,36.05,69,1,6.96,IS,1684189402
300,cambridge,43.3601,-80.3127,69.19,26,0,13.8,CA,1684189240
301,damanhur,31.0392,30.4691,64.72,82,37,6.29,EG,1684189403
302,copiapo,-27.3667,-70.3333,60.49,61,0,3.44,CL,1684189403
303,queenstown,-31.8976,26.8753,44.06,86,1,3.09,ZA,1684189403
304,chone,-0.6833,-80.1,82.29,83,84,5.82,EC,1684189403
305,vadso,70.0744,29.7487,56.28,81,0,13.8,NO,1684189403
306,tyukhtet,56.5389,89.3011,37.83,50,100,4.38,RU,1684189404
307,chernyshevskiy,63.0128,112.4714,34.07,74,100,2.1,RU,1684189404
308,mbandaka,0.0487,18.2603,73.71,90,89,1.77,CD,1684189404
309,rexburg,43.826,-111.7897,72.91,33,0,9.22,US,1684189404
310,ulysses,37.5814,-101.3552,66.49,63,100,13.8,US,1684189405
311,yuzhno-kurilsk,44.0306,145.8556,43.92,95,99,5.19,RU,1684189405
312,puerto armuelles,8.2833,-82.8667,75.18,91,100,6.44,PA,1684189405
313,manacapuru,-3.2997,-60.6206,79.56,91,94,4.16,BR,1684189405
314,qarqaraly,49.4058,75.4742,43.3,38,99,2.37,KZ,1684189405
315,puerto aysen,-45.4,-72.7,53.94,99,100,5.7,CL,1684189145
316,flin flon,54.7682,-101.865,78.64,24,40,11.5,CA,1684189406
317,revelstoke,50.9832,-118.2023,86.02,28,0,6.91,CA,1684189406
318,pichucalco,17.5167,-93.0667,90.19,44,54,9.55,MX,1684189406
319,mankera,31.3866,71.4407,92.61,16,98,7.58,PK,1684189407
320,new norfolk,-42.7826,147.0587,48.7,64,55,1.01,AU,1684189407
321,dalandzadgad,43.5708,104.425,53.62,44,54,5.57,MN,1684189407
322,santa ana,33.7456,-117.8678,83.64,69,75,11.5,US,1684189177
323,ilulissat,69.2167,-51.1,33.82,75,40,6.91,GL,1684189408
324,papao,-17.75,-149.55,87.48,78,49,2.84,PF,1684189408
325,arraial do cabo,-22.9661,-42.0278,69.76,83,0,6.91,BR,1684189408
326,emerald,-23.5333,148.1667,66.45,70,38,6.98,AU,1684189408
327,yemetsk,63.4721,41.7941,52.39,62,13,3.69,RU,1684189408
328,kapchorwa,1.3965,34.4509,59.76,71,58,4.97,UG,1684189409
329,condoto,5.0935,-76.6497,77.34,96,99,2.01,CO,1684189409
330,crane,31.3974,-102.3501,81.19,37,97,7.67,US,1684189409
331,wagar,16.1525,36.2032,93.38,10,2,12.95,SD,1684189409
332,riosucio,5.4216,-75.7032,63.3,98,100,1.03,CO,1684189409
333,kapuskasing,49.4169,-82.4331,68.0,40,100,10.36,CA,1684189410
334,acarau,-2.8856,-40.12,79.97,85,5,13.06,BR,1684189410
335,lata,40.1629,-8.3327,61.92,85,100,1.32,PT,1684189410
336,road town,18.4167,-64.6167,82.44,69,40,10.36,VG,1684189192
337,yaren,-0.5472,166.916,83.23,78,80,12.77,NR,1684189411
338,puerto baquerizo moreno,-0.9,-89.6,81.59,74,75,9.22,EC,1684189350
339,krasnopillya,50.7746,35.2597,51.58,80,44,6.8,UA,1684189411
340,childress,34.4264,-100.204,71.85,60,100,12.66,US,1684189411
341,stjordalshalsen,63.4681,10.9262,48.2,81,75,8.05,NO,1684189412
342,cannonvale,-20.2833,148.7,72.79,78,100,5.77,AU,1684189412
343,peniche,39.3558,-9.3811,61.29,88,86,20.24,PT,1684189412
344,xilin hot,43.9667,116.0333,66.15,24,100,18.5,CN,1684189413
345,galliano,29.4422,-90.2992,89.6,51,0,0.0,US,1684189413
346,jayapura,-2.5333,140.7,78.19,88,100,5.44,ID,1684189413
347,plastun,44.7561,136.2939,52.57,93,99,1.61,RU,1684189413
348,salekhard,66.53,66.6019,26.51,84,16,11.3,RU,1684189414
349,lake murray of richland,34.1205,-81.2645,83.89,43,58,6.91,US,1684189414
350,kudymkar,59.0173,54.656,45.5,65,100,3.47,RU,1684189414
351,isangel,-19.55,169.2667,77.68,72,94,16.78,VU,1684189414
352,shahrak,34.1074,64.3052,50.0,71,0,4.65,AF,1684189415
353,kuta,-8.7233,115.1723,77.0,78,40,3.44,ID,1684189415
354,rosarito,32.3333,-117.0333,73.63,69,88,9.66,MX,1684189308
355,lingyuan,41.24,119.4011,65.28,56,8,6.26,CN,1684189415
356,ad dilam,23.9915,47.1627,84.61,17,99,9.13,SA,1684189416
357,okha,53.5739,142.9478,39.04,94,81,17.43,RU,1684189416
358,guaruja,-23.9931,-46.2564,70.9,26,100,1.01,BR,1684189416
359,kencong,-8.2833,113.3667,71.38,84,27,2.24,ID,1684189417
360,utrik,11.2278,169.8474,81.23,80,99,17.2,MH,1684189417
361,vicuna,-30.0319,-70.7081,56.93,61,0,3.13,CL,1684189418
362,princeville,45.7668,-61.2985,63.25,45,100,10.36,CA,1684189418
363,santiago,-33.4569,-70.6483,65.55,72,6,8.05,CL,1684189029
364,noumea,-22.2763,166.4572,77.0,99,79,14.12,NC,1684189420
365,ceerigaabo,10.6162,47.368,68.38,70,71,12.15,SO,1684189420
366,carnarvon,-24.8667,113.6333,65.46,46,2,11.99,AU,1684189421
367,reggane,26.7158,0.1714,77.2,14,1,11.83,DZ,1684189421
368,filey,54.21,-0.2892,47.88,76,13,5.66,GB,1684189421
369,port antonio,18.18,-76.4612,86.99,76,100,10.42,JM,1684189422
370,mykolayiv,46.9659,31.9974,57.4,54,93,3.29,UA,1684189422
371,las tablas,7.7667,-80.2833,79.18,99,100,4.76,PA,1684189422
372,newman,37.3138,-121.0208,92.23,29,0,8.01,US,1684189423
373,usogorsk,63.4106,48.6872,50.11,79,71,4.07,RU,1684189423
374,ketchikan,55.3422,-131.6461,68.47,52,0,10.36,US,1684189423
375,general conesa,-40.1,-64.4333,72.18,44,48,12.21,AR,1684189423
376,alesund,62.4723,6.1549,49.75,91,40,9.22,NO,1684189132
377,mokpo,34.7936,126.3886,62.65,82,0,8.3,KR,1684189424
378,lichtenburg,-26.152,26.1597,49.53,39,0,4.65,ZA,1684189424
379,n'zeto,-7.2312,12.8666,77.72,89,43,6.6,AO,1684189424
380,nikolayevsk-on-amure,53.1406,140.73,50.31,82,98,9.4,RU,1684189424
381,manado,1.487,124.8455,79.57,94,40,1.14,ID,1684189424
382,fada,9.5667,8.3,74.95,71,99,3.47,NG,1684189425
383,lensk,60.7253,114.9278,37.06,57,15,2.39,RU,1684189249
384,mahina,-17.5065,-149.489,87.57,62,20,5.75,PF,1684189425
385,zhanaozen,43.3,52.8,52.41,83,100,17.78,KZ,1684189425
386,santiago de cao,-7.9589,-79.2392,75.33,78,21,9.22,PE,1684189425
387,callao,-12.0667,-77.15,78.71,69,100,11.5,PE,1684189377
388,peace river,56.2501,-117.286,82.71,18,100,9.22,CA,1684189426
389,basco,20.4487,121.9702,80.2,84,100,10.94,PH,1684189426
390,galeana,24.8333,-100.0667,66.67,65,39,9.26,MX,1684189426
391,luorong,24.4058,109.6086,72.91,94,91,4.18,CN,1684189427
392,khairpur nathan shah,27.0936,67.7337,87.85,28,1,5.59,PK,1684189427
393,sabang,5.8933,95.3214,83.12,75,95,14.99,ID,1684189427
394,nadi,-17.8,177.4167,78.8,73,75,3.44,FJ,1684189427
395,faya-largeau,17.9257,19.1043,93.13,11,1,2.91,TD,1684189428
396,kudat,6.8837,116.8477,76.93,94,20,1.14,MY,1684189428
397,dakhla,23.6848,-15.958,67.62,76,91,17.07,EH,1684189428
398,santa elena de uairen,4.6167,-61.1333,72.57,87,97,0.92,VE,1684189428
399,mena,51.5217,32.2157,54.12,71,100,8.77,UA,1684189428
400,sierra vista,31.5545,-110.3037,84.36,24,75,14.97,US,1684189429
401,tallahassee,30.4383,-84.2807,79.86,87,75,3.44,US,1684189296
402,hotan,37.0997,79.9269,69.57,12,7,6.04,CN,1684189429
403,kolonia town,6.964,158.206,84.2,84,100,4.61,FM,1684189429
404,vengerovo,55.6848,76.7471,43.66,56,97,7.49,RU,1684189429
405,parintins,-2.6283,-56.7358,77.94,95,100,3.04,BR,1684189430
406,kargasok,59.0556,80.8572,38.44,59,95,8.81,RU,1684189430
407,plainview,40.7765,-73.4673,76.98,55,0,13.8,US,1684189181
408,ta`u,-14.2336,-169.5144,81.93,77,23,11.25,AS,1684189430
409,las lomitas,-24.7096,-60.593,70.86,50,0,6.26,AR,1684189430
410,monahans,31.5943,-102.8926,82.9,40,98,10.78,US,1684189431
411,katsuura,35.1333,140.3,62.71,72,1,10.92,JP,1684189431
412,vila do maio,15.1333,-23.2167,74.19,81,79,12.73,CV,1684189431
413,novodvinsk,64.4165,40.8122,53.74,63,56,4.52,RU,1684189431
414,chegdomyn,51.1167,133.0167,45.3,61,40,6.98,RU,1684189431
415,pisco,-13.7,-76.2167,73.45,73,75,13.8,PE,1684189188
416,urzhar,47.093,81.6294,45.63,53,97,7.78,KZ,1684189432
417,zahedan,29.4963,60.8629,67.91,12,0,4.61,IR,1684189432
418,maumere,-8.6199,122.2111,74.32,79,6,6.13,ID,1684189432
419,indramayu,-6.3264,108.32,78.3,75,22,7.43,ID,1684189432
420,labrador city,52.9463,-66.9114,39.11,52,75,11.5,CA,1684189433
421,sola,-13.8833,167.55,81.07,77,92,22.48,VU,1684189433
422,hilo,19.7297,-155.09,84.27,87,100,1.01,US,1684189195
423,suva,-18.1416,178.4415,74.68,88,75,3.44,FJ,1684189433
424,trujillo,-8.116,-79.03,75.16,78,13,9.22,PE,1684189423
425,dalnegorsk,44.5604,135.5701,55.44,90,100,1.77,RU,1684189433
426,sathupalli,17.2497,80.869,91.63,25,22,3.22,IN,1684189434
427,gusinoozyorsk,51.2833,106.5,36.37,54,75,4.12,RU,1684189434
428,roznava,48.6601,20.5376,52.97,99,100,2.06,SK,1684189434
429,robore,-18.3333,-59.75,74.21,56,0,2.89,BO,1684189434
430,tralee,52.2704,-9.7026,44.62,88,34,3.42,IE,1684189435
431,tolanaro,-25.0319,46.9987,69.87,94,0,4.61,MG,1684189435
432,serdar,38.9764,56.2757,57.92,68,81,21.52,TM,1684189435
433,kurumkan,54.3,110.3,34.84,37,21,1.52,RU,1684189435
434,bac lieu,9.285,105.7244,82.87,78,7,6.64,VN,1684189435
435,nova vicosa,-17.8919,-39.3719,74.97,84,20,5.55,BR,1684189436
436,saint-imier,47.1528,6.9969,47.23,100,0,1.14,CH,1684189436
437,malegaon,20.55,74.5333,80.73,59,0,14.81,IN,1684189436
438,ciudad lazaro cardenas,17.9583,-102.2,86.7,53,0,10.54,MX,1684189436
439,atiquizaya,13.9769,-89.7525,88.39,47,80,5.3,SV,1684189436
440,kuraymah,18.55,31.85,83.55,9,1,10.47,SD,1684189437
441,mangrol,21.1167,70.1167,82.67,85,5,12.26,IN,1684189437
442,richards bay,-28.783,32.0377,62.92,81,74,7.14,ZA,1684189437
443,sokoto,13.0609,5.239,93.88,33,100,10.92,NG,1684189437
444,saint-florentin,48.0006,3.7249,51.62,92,100,12.21,FR,1684189438
445,saint-francois,46.4154,3.9054,51.96,87,0,6.91,FR,1684189438
446,bamboo flat,11.7,92.7167,82.49,83,40,2.3,IN,1684189438
447,colonia,50.9333,6.95,54.95,79,100,17.27,DE,1684189443
448,vila velha,-20.3297,-40.2925,76.95,85,75,4.61,BR,1684189444
449,aswan,24.0934,32.907,85.3,23,0,13.8,EG,1684189444
450,kayyerkan,69.3786,87.7439,18.03,91,92,8.37,RU,1684189444
451,shar,49.5886,81.0453,45.95,37,1,3.91,KZ,1684189448
452,as sulayyil,20.4607,45.5779,84.45,15,0,12.33,SA,1684189448
453,kembe,4.6228,21.8865,75.51,64,12,1.81,CF,1684189448
454,columbus,39.9612,-82.9988,77.14,36,75,6.91,US,1684188977
455,afif,23.9065,42.9172,83.37,18,73,3.85,SA,1684189449
456,grootfontein,-19.5667,18.1167,58.57,55,73,4.61,NA,1684189449
457,kapa'a,22.0752,-159.319,80.58,62,100,13.8,US,1684189449
458,ghadamis,30.1337,9.5007,65.43,33,0,5.77,LY,1684189449
459,nelson bay,-32.7167,152.15,57.09,97,100,8.99,AU,1684189450
460,revda,56.801,59.9303,41.97,68,50,3.13,RU,1684189450
461,ust-nera,64.5667,143.2,35.22,87,97,5.37,RU,1684189450
462,meizhou,24.2977,116.1072,70.45,91,99,2.48,CN,1684189451
463,tapa,59.2606,25.9586,57.81,60,100,7.92,EE,1684189451
464,guerrero negro,27.9769,-114.0611,70.97,53,11,15.57,MX,1684189279
465,fano,43.8204,13.0121,59.79,90,100,8.14,IT,1684189451
466,regina,50.4501,-104.6178,80.58,26,40,6.91,CA,1684189433
467,vanino,49.0869,140.2543,43.27,97,100,5.23,RU,1684189196
468,chateau-thierry,49.05,3.4,48.36,89,100,14.67,FR,1684189452
469,lorengau,-2.0226,147.2712,83.19,82,78,8.55,PG,1684189452
470,ouro sogui,15.6,-13.3167,98.62,26,0,2.3,SN,1684189453
471,alappuzha,9.49,76.3264,83.19,79,74,8.46,IN,1684189453
472,walvis bay,-22.9575,14.5053,54.55,87,0,3.44,NA,1684189453
473,merritt island,28.5392,-80.672,84.04,62,0,10.36,US,1684189410
474,mende,44.6667,3.5,40.26,89,80,9.35,FR,1684189453
475,ikungi,-5.1333,34.7667,62.22,76,58,6.49,TZ,1684189454
476,cockburn town,21.4612,-71.1419,80.4,79,96,10.47,TC,1684189454
477,navia,43.5354,-6.7194,49.32,93,71,4.41,ES,1684189454
478,skeldon,5.8833,-57.1333,78.22,92,100,7.18,GY,1684189455
479,harstad,68.799,16.5293,45.79,97,99,17.0,NO,1684189455
480,josenii bargaului,47.2167,24.6833,57.69,87,100,1.7,RO,1684189455
481,cotusca,48.1333,26.85,59.61,61,100,16.22,RO,1684189456
482,coquimbo,-29.9533,-71.3436,64.13,67,0,8.05,CL,1684189437
483,smara,26.7384,-11.6719,67.14,56,23,11.01,EH,1684189456
484,caluula,11.9661,50.7569,85.24,79,5,0.89,SO,1684189456
485,vuktyl,63.8567,57.3094,39.6,96,100,4.34,RU,1684189456
486,baruun-urt,46.6806,113.2792,34.48,74,88,21.09,MN,1684189457
487,goma,-1.6792,29.2228,63.12,89,60,2.86,CD,1684189457
488,caleta de carquin,-11.0925,-77.6267,72.63,75,37,9.44,PE,1684189457
489,rio claro,-22.4114,-47.5614,58.35,74,69,1.79,BR,1684189457
490,thunder bay,48.4001,-89.3168,75.18,23,100,14.97,CA,1684189226
491,menongue,-14.6585,17.691,64.04,48,50,0.81,AO,1684189458
492,sisimiut,66.9395,-53.6735,35.69,69,100,6.55,GL,1684189458
493,motilla del palancar,39.5709,-1.9068,54.43,49,27,3.0,ES,1684189458
494,undurkhaan,47.3194,110.6556,36.09,75,55,11.95,MN,1684189459
495,juba,4.8517,31.5825,74.89,77,92,3.8,SS,1684189459
496,okhotsk,59.3833,143.3,39.96,74,99,12.84,RU,1684189459
497,kailua-kona,19.6406,-155.9956,83.28,73,40,13.8,US,1684189459
498,tangalle,6.024,80.7911,81.18,89,100,11.16,LK,1684189459
499,bel ombre,-4.6167,55.4167,82.24,83,40,10.36,SC,1684189460
500,puerto rosario,-24.45,-57.0833,66.97,62,0,4.68,PY,1684189460
501,hameenlinna,60.996,24.4643,58.14,65,100,6.17,FI,1684189460
502,sapatgram,26.3334,90.109,69.4,92,3,11.23,IN,1684189460
503,bhindar,24.5,74.1833,82.62,55,1,10.85,IN,1684189461
504,eastham,41.8301,-69.9739,64.94,54,0,11.5,US,1684189461
505,trail,49.0998,-117.7022,76.98,36,22,5.66,CA,1684189461
506,lyantor,61.6195,72.1555,34.23,80,17,13.65,RU,1684189461
507,jatiroto,-7.8833,111.1167,68.49,91,5,3.44,ID,1684189462
508,san patricio,28.017,-97.5169,84.06,75,100,7.9,US,1684189462
509,carlos chagas,-17.7031,-40.7664,72.59,78,19,3.36,BR,1684189386
510,gemena,3.25,19.7667,74.23,85,91,2.3,CD,1684189462
511,neryungri,56.6709,124.6491,30.79,96,100,11.16,RU,1684189455
512,yuanping,38.7153,112.7575,66.47,37,13,0.74,CN,1684189463
513,tisul',55.7611,88.3122,42.15,91,100,6.29,RU,1684189463
514,poyarkovo,49.6,128.6833,48.31,37,27,12.62,RU,1684189463
515,booue,-0.0921,11.9385,75.6,96,84,2.13,GA,1684189464
516,coronel oviedo,-25.4167,-56.45,66.07,59,0,4.45,PY,1684189464
517,temiskaming shores,47.4938,-79.7153,71.4,55,100,7.23,CA,1684189464
518,sitangkai,4.6628,119.3928,83.1,78,6,5.66,PH,1684189464
519,pochinki,54.6988,44.8668,49.98,74,98,5.91,RU,1684189465
520,bure,10.7,37.0667,67.28,39,78,4.03,ET,1684189465
521,villa gesell,-37.2639,-56.973,58.05,75,21,12.53,AR,1684189465
522,jalai nur,49.45,117.7,40.03,52,100,10.31,CN,1684189466
523,manay,7.215,126.5397,78.55,84,89,4.05,PH,1684189466
524,penzance,50.1186,-5.5371,50.68,80,3,10.07,GB,1684189466
525,flying fish cove,-10.4217,105.6791,76.68,78,40,9.22,CX,1684189467
526,lincoln city,44.9582,-124.0179,80.6,78,82,8.99,US,1684189223
527,muana,-1.5283,-49.2167,79.7,86,59,5.21,BR,1684189467
528,cole harbour,44.6724,-63.4751,67.19,39,100,13.8,CA,1684189467
529,tongren,27.7172,109.1853,69.39,97,99,0.02,CN,1684189467
530,tyuratam,45.6507,63.3156,57.47,88,100,10.98,KZ,1684189468
531,bambanglipuro,-7.95,110.2833,72.43,87,8,4.29,ID,1684189468
532,beloyarskiy,63.7119,66.6722,35.56,71,17,13.13,RU,1684189468
533,timimoun,29.2639,0.231,70.18,14,0,4.61,DZ,1684189468
534,makoua,0.0069,15.6333,76.21,86,47,3.69,CG,1684189469
535,petropavlovsk-kamchatsky,53.0452,158.6483,48.79,66,0,8.95,RU,1684189469
536,turpan,42.9333,89.1667,73.99,26,1,3.56,CN,1684189469
537,thetford-mines,46.0937,-71.3054,59.11,90,100,11.74,CA,1684189254
538,florence,43.7667,11.25,62.28,66,0,6.91,IT,1684189391
539,san pedro,14.35,121.0167,83.43,84,75,4.61,PH,1684189145
540,tazovsky,67.4667,78.7,25.74,96,98,11.07,RU,1684189473
541,kovalam,8.3667,76.9967,86.09,79,20,4.61,IN,1684189474
542,blackwater,-23.5833,148.8833,66.54,77,24,7.14,AU,1684189474
543,hadibu,12.65,54.0333,85.42,79,57,9.19,YE,1684189474
544,hammerfest,70.6634,23.6821,48.65,66,0,0.0,NO,1684189475
545,cova figueira,14.8905,-24.2934,69.28,81,41,15.59,CV,1684189475
546,griffith,41.5284,-87.4237,70.14,44,0,6.91,US,1684189475
